{"type":"FeatureCollection","features":[{"type":"Feature","properties":{"Landmark":"William R. Thorsen House (now Sigma Phi Society Chapter House)","Address":"2307 Piedmont Avenue","Architect + Date":"Charles Sumner Greene & Henry Mather Greene (1908–10)","Link":"https://thorsenhouse.org/","Designated":"15 Dec 1975","Notes":"#78000647, National Register of Historic Places (1978)"},"geometry":{"coordinates":[-122.25185772883613,37.869118582290966],"type":"Point"},"id":0},{"type":"Feature","properties":{"Landmark":"\tNorth Gate Hall (Architecture Building, now Graduate School of Journalism)","Address":"Hearst Avenue, University of California Campus","Architect + Date":"John Galen Howard (1906)\t","Link":"https://berkeleyheritage.com/berkeley_landmarks/northgate_hall.html","Designated":"15 Nov 1976; (assigned new number on 2 Feb 1991","Notes":"California Historic Landmark No. 946 #82004648, National Register of Historic Places (1982)"},"geometry":{"coordinates":[-122.27903991051932,37.87257331043968],"type":"Point"},"id":1},{"type":"Feature","properties":{"Landmark":"Manuel Silva House","Address":"1824 Fifth Street","Architect + Date":"Joseph Alfonso (1870s)","Link":"https://berkeleyheritage.com/berkeley_landmarks/images/Silva_1824_Fifth.jpg","Designated":"14 May 1979","Notes":"CA State Historic Resources Inventory"},"geometry":{"coordinates":[-122.29959292866286,37.86933603845658],"type":"Point"},"id":2},{"type":"Feature","properties":{"Landmark":"United States Post Office","Address":"2000 Allston Way","Architect + Date":"Oscar Wenderoth (1914)","Link":"https://berkeleyheritage.com/berkeley_landmarks/images/Post_Office.jpg","Designated":"16 Jun 1980","Notes":"Civic Center Historic District; #81000144, National Register of Historic Places (1982)"},"geometry":{"coordinates":[-122.26999707013285,37.86881046567396],"type":"Point"},"id":3},{"type":"Feature","properties":{"Landmark":"First Unitarian Church (now University Dance Studio)","Address":"2401 Bancroft Way at Dana Street","Architect + Date":"Albert Cicero Schweinfurth (1898)","Link":"https://berkeleyheritage.com/berkeley_landmarks/1unitarian.html","Designated":"16 Nov 1981","Notes":"#81000143, National Register of Historic Places (1981)"},"geometry":{"coordinates":[-122.25251945284836,37.869566608132814],"type":"Point"},"id":4},{"type":"Feature","properties":{"Landmark":"Strand Theater (now Elmwood Theater)","Address":"\t2966 College Avenue","Architect + Date":"William Dufour (1914); Alexander Aimwell Cantin & Alexander Mackenzie Cantin (1946)","Link":"https://berkeleyheritage.com/berkeley_landmarks/images/Elmwood_Theater.jpg","Designated":"24 May 1982","Notes":"CA State Historic Resources Inventory"},"geometry":{"coordinates":[-122.25326008909153,37.85669680470059],"type":"Point"},"id":5},{"type":"Feature","properties":{"Landmark":"Captain Maury House","Address":"1317 Shattuck Avenue","Architect + Date":"Unknown (c. 1885); John Hudson Thomas (1922)","Link":"https://berkeleyheritage.com/eastbay_then-now/maury-seabury.html","Designated":"20 Dec 1982","Notes":""},"geometry":{"coordinates":[-122.26935789627407,37.88312939062655],"type":"Point"},"id":6},{"type":"Feature","properties":{"Landmark":"Charles R. Brown House","Address":"1614 Sixth Street, Berkeley, California 94710, United States","Architect + Date":"Frank Gimbal (1888)","Link":"https://berkeleyheritage.com/berkeley_landmarks/images/Brown_1614_Sixth.jpg","Designated":"21 Nov 1983","Notes":"CA State Historic Resources Inventory"},"geometry":{"coordinates":[-122.29981100122251,37.87347592989212],"type":"Point"},"id":7},{"type":"Feature","properties":{"Landmark":"People’s Park\t","Address":"2526 Haste Street/2448 Bowditch Street/2551 Dwight Way","Architect + Date":"(1969)","Link":"https://en.wikipedia.org/wiki/People%27s_Park_(Berkeley)","Designated":"19 Nov 1984","Notes":"\tCA State Historic Resources Inventory"},"geometry":{"coordinates":[-122.25773119034122,37.86614467575302],"type":"Point"},"id":8},{"type":"Feature","properties":{"Landmark":"William E. Colby House (Blossom House)","Address":"2901 Channing Way","Architect + Date":"Julia Morgan (1905)","Link":"https://berkeleyheritage.com/eastbay_then-now/sierra_club_leaders.html","Designated":"15 Jul 1985\t","Notes":"CA State Historic Resources Inventory"},"geometry":{"coordinates":[-122.2504311362039,37.86813731703239],"type":"Point"},"id":9}]}